[
    {
        "name": "惠食佳(东方大厦)",
        "address": "漕溪北路上实大厦五楼(徐家汇地铁站8号口旁)",
        "location": "121.437771,31.192640"
    },
    {
        "name": "勝记广州大排档",
        "address": "宁夏路236弄2号(曹杨路地铁站2号口步行400米)",
        "location": "121.419081,31.234323"
    },
    {
        "name": "潮人姐妹轩",
        "address": "海宁路269号森林湾大厦B座一楼",
        "location": "121.487621,31.250998"
    },
    {
        "name": "阿文潮汕食府(平型关路店)",
        "address": [],
        "location": "121.466788,31.268652"
    },
    {
        "name": "甘草潮夜档",
        "address": "巨鹿路242号1-6(淮海中路地铁站3号口步行280米)",
        "location": "121.462814,31.222971"
    },
    {
        "name": "渔哥(龙华会店)",
        "address": "龙华路2778号龙华会3幢C3地上2层C3-L2S03室(龙华地铁站5号口步行80米)",
        "location": "121.453900,31.173423"
    },
    {
        "name": "潮凤",
        "address": "未找到",
        "location": "未找到"
    },
    {
        "name": "全季酒店(上海虹桥机场空港店)",
        "address": "空港六路45号(靠近沪青平公路路口)",
        "location": "121.348943,31.180484"
    },
    {
        "name": "南北湘排档NB Soeng",
        "address": "幸福路与华山路1520弄交叉口南120米",
        "location": "121.430923,31.204271"
    },
    {
        "name": "威皇",
        "address": "未找到",
        "location": "未找到"
    },
    {
        "name": "煲山海",
        "address": "浦东南路2266号逸扉酒店一楼",
        "location": "121.513200,31.203871"
    },
    {
        "name": "小粤楼(万辉国际广场1号楼店)",
        "address": "万辉国际广场1号楼2层201-205室",
        "location": "121.422407,31.124198"
    },
    {
        "name": "新记烧鹅王",
        "address": "华志路555号华金小商品城A区17栋103",
        "location": "121.231045,31.230470"
    },
    {
        "name": "盈田盈粥庄",
        "address": "未找到",
        "location": "未找到"
    },
    {
        "name": "升记猪杂粥觅味馆(上海店)",
        "address": "昭化路505号昭化园103",
        "location": "121.422255,31.211484"
    },
    {
        "name": "陶香煲仔饭",
        "address": "斜土东路176号昂云空间1楼110",
        "location": "121.488526,31.207815"
    },
    {
        "name": "佳记",
        "address": "未找到",
        "location": "未找到"
    },
    {
        "name": "刘卜卤鹅",
        "address": "巨鹿路895号(静安寺地铁站12号口步行410米)",
        "location": "121.448151,31.218255"
    },
    {
        "name": "厦门亚英餐厅(兰溪路店)",
        "address": "兰溪路433号(铜川路地铁站2号口步行490米)",
        "location": "121.401856,31.249683"
    },
    {
        "name": "临家闽南宴(正大广场店)",
        "address": "陆家嘴西路168号正大广场7F",
        "location": "121.498095,31.236587"
    },
    {
        "name": "闽和南·欢宴",
        "address": "未找到",
        "location": "未找到"
    },
    {
        "name": "吴记鲜定味(吴中路店)",
        "address": "吴中路1050号(莲花路口北面)盛世莲花广场东楼1层",
        "location": "121.387619,31.178977"
    },
    {
        "name": "海上小喔(上海陆家嘴店)",
        "address": "崂山路707号(浦东陆家嘴金融贸易区)",
        "location": "121.525304,31.220228"
    },
    {
        "name": "台南擔仔面",
        "address": "老虹井路218号0107室(龙柏新村地铁站4号口步行130米)",
        "location": "121.369854,31.175651"
    },
    {
        "name": "龙岩菜",
        "address": "未找到",
        "location": "未找到"
    },
    {
        "name": "闽馨风味馆",
        "address": "莘庄镇水清路1460弄4号101-1",
        "location": "121.372752,31.133075"
    },
    {
        "name": "老吴家·经典川菜",
        "address": "昭化路120号",
        "location": "121.425672,31.211830"
    },
    {
        "name": "竹屋川菜馆(淮海中路店)",
        "address": "淮海中路99号B107(大世界地铁站3号口步行260米)",
        "location": "121.478299,31.224441"
    },
    {
        "name": "本来川菜",
        "address": "未找到",
        "location": "未找到"
    },
    {
        "name": "花园鱼庄(丰庄店)",
        "address": "曹安公路1611号丰庄茶城F1层",
        "location": "121.367139,31.251887"
    },
    {
        "name": "觉味燃面(地产·尚海郦景店)",
        "address": "商城路2000号108室",
        "location": "121.539234,31.238256"
    },
    {
        "name": "赣江村(浦东大道店)",
        "address": "浦东大道地铁站6号口步行230米",
        "location": "121.516126,31.239835"
    },
    {
        "name": "大上饶饶帮菜",
        "address": "凤凰大道99号7栋107、207",
        "location": "117.982188,28.462443"
    },
    {
        "name": "江西客家传统小炒(福山路店)",
        "address": "商城路1118号",
        "location": "121.526930,31.234141"
    },
    {
        "name": "芥菜园私房菜(玫瑰广场店)",
        "address": "衡水路202一楼(四川北路地铁站1号口步行130米)",
        "location": "121.483617,31.253129"
    },
    {
        "name": "谭姐湘菜馆",
        "address": "未找到",
        "location": "未找到"
    },
    {
        "name": "湘润土菜馆(广灵二路商业街店)",
        "address": "广灵二路341号",
        "location": "121.472324,31.283640"
    },
    {
        "name": "柒货·土菜供销社",
        "address": "未找到",
        "location": "未找到"
    },
    {
        "name": "湘御",
        "address": "未找到",
        "location": "未找到"
    },
    {
        "name": "湘椒(鸿寿坊店)",
        "address": "西康路1117号1-2层(长寿路地铁站3号口步行240米)",
        "location": "121.440473,31.241363"
    },
    {
        "name": "菁菁有味恩施菜馆(禹洲·金桥国际3期店)",
        "address": "金湘路199号禹洲·金桥国际3期F1层",
        "location": "121.612523,31.255573"
    },
    {
        "name": "泓0871臻选云南菜(上海北外滩店)",
        "address": "吴淞路130号城投控股大厦副楼彩虹北F5层",
        "location": "121.490448,31.247023"
    },
    {
        "name": "刘和园",
        "address": "未找到",
        "location": "未找到"
    },
    {
        "name": "边陲傣家·云南德宏傣族风味",
        "address": "七宝镇宝南路536弄110号203室",
        "location": "121.355384,31.152423"
    },
    {
        "name": "云味·大可堂",
        "address": "陕西南路548号乙(近绍兴路)",
        "location": "121.461568,31.207945"
    },
    {
        "name": "傣着园",
        "address": "亭林镇复兴东路59号102室",
        "location": "121.317942,30.881154"
    },
    {
        "name": "跳河大排档",
        "address": "未找到",
        "location": "未找到"
    },
    {
        "name": "桂林板路(胜康廖氏大厦店)",
        "address": "商城路738号胜康廖氏大厦一层L101-2",
        "location": "121.519522,31.230179"
    },
    {
        "name": "源禾清小馆",
        "address": "中漕路98号(近华亭宾馆)",
        "location": "121.433440,31.183156"
    },
    {
        "name": "荣季95·小海鲜酒馆",
        "address": "虎丘路28号1F(南京东路地铁站6号口步行480米)",
        "location": "121.487460,31.241650"
    },
    {
        "name": "绍兴名菜馆",
        "address": "未找到",
        "location": "未找到"
    },
    {
        "name": "温州海鲜黄牛馆",
        "address": "未找到",
        "location": "未找到"
    },
    {
        "name": "温州牛肉馆(石泉秋月枫舍步行街店)",
        "address": "中山北路2139弄22-1号石泉秋月枫舍步行街",
        "location": "121.428734,31.247710"
    },
    {
        "name": "清江佬海鲜面(丰庄路店)",
        "address": "新郁支路丰庄路交差口",
        "location": "121.366051,31.251452"
    },
    {
        "name": "老村庄野鱼馆(曲阳路店)",
        "address": "腾克路120号二楼(近曲阳路)",
        "location": "121.491412,31.290854"
    },
    {
        "name": "淮扬韵·淮阳味道",
        "address": "未找到",
        "location": "未找到"
    },
    {
        "name": "南陵人家·经典土菜",
        "address": "凯旋路901号(延安西路地铁站2号口步行480米)",
        "location": "121.417171,31.205886"
    },
    {
        "name": "席家花园(巨鹿花园店)",
        "address": "巨鹿路889号距地铁14号线静安寺站11号口步行990m",
        "location": "121.448300,31.217658"
    },
    {
        "name": "豪生酒家",
        "address": "未找到",
        "location": "未找到"
    },
    {
        "name": "珊岛",
        "address": "未找到",
        "location": "未找到"
    },
    {
        "name": "半盆菜酒家",
        "address": "中山南一路893号(近鲁班路口)",
        "location": "121.476133,31.197216"
    },
    {
        "name": "玮丰酒家(南昌路178弄小区店)",
        "address": "南昌路188号(淮海中路地铁站1号口步行290米)",
        "location": "121.466404,31.218326"
    },
    {
        "name": "157食坊(上海凯旋商务中心店)",
        "address": "凯旋路1406号(近虹桥路地铁站)",
        "location": "121.419879,31.200509"
    },
    {
        "name": "胶东渔村",
        "address": "未找到",
        "location": "未找到"
    },
    {
        "name": "青岛海鲜",
        "address": "未找到",
        "location": "未找到"
    },
    {
        "name": "二雷吉林烧烤",
        "address": "紫藤路178-180号(紫藤路地铁站1号口步行340米)",
        "location": "121.364596,31.173191"
    },
    {
        "name": "老胖烧烤吉林小串(河间路店)",
        "address": "河间路810号",
        "location": "121.542926,31.271020"
    },
    {
        "name": "胜彪烧烤店",
        "address": "未找到",
        "location": "未找到"
    },
    {
        "name": "小木屋米酒吧",
        "address": "未找到",
        "location": "未找到"
    },
    {
        "name": "八仙黑驴肉馆",
        "address": "灵石路697-3号",
        "location": "121.446567,31.283330"
    }
]